$GPGGA,,,,,,0,00,,,M,,M,,0000*66
$GPGGA,,,,,,0,00,,,M,,M,,0000*66
$GPGGA,,,,,,0,00,,,M,,M,,0000*66
$GPGGA,,,,,,0,00,,,M,,M,,0000*66
$GPGGA,142350.000,,,,,0,00,,,M,,M,,0000*79
$GPGGA,142352.000,,,,,0,00,,,M,,M,,0000*7B
$GPGGA,142353.000,,,,,0,00,,,M,,M,,0000*7A
$GPGGA,142354.000,,,,,0,00,,,M,,M,,0000*7D
$GPGGA,142356.000,,,,,0,00,,,M,,M,,0000*7F

$GPGGA,142358.000,,,,,0,00,,,M,,M,,0000*71
$GPGGA,142359.000,,,,,0,00,,,M,,M,,0000*70
$GPGGA,142401.000,,,,,0,00,,,M,,M,,0000*7A

$GPGGA,142403.000,1024.13338,N,07530.36135,W,1,03,4.1,0.0,M,,M,,0000*58
$GPGGA,142405.000,1024.13425,N,07530.35995,W,1,03,4.1,0.0,M,,M,,0000*54
$GPGGA,142407.000,1024.13325,N,07530.36095,W,1,03,4.1,0.0,M,,M,,0000*5B
$GPGGA,142408.000,1024.13417,N,07530.36160,W,1,03,4.1,0.0,M,,M,,0000*59
$GPGGA,142409.000,1024.13440,N,07530.36221,W,1,03,4.1,0.0,M,,M,,0000*5C
$GPGGA,142411.000,1024.13739,N,07530.36185,W,1,03,4.1,0.0,M,,M,,0000*55

$GPGGA,142413.000,1024.13868,N,07530.36286,W,1,03,4.1,-0.0,M,,M,,0000*71
$GPGGA,142414.000,1024.13781,N,07530.36220,W,1,03,4.1,-0.0,M,,M,,0000*72
$GPGGA,142416.000,1024.13880,N,07530.36264,W,1,03,4.1,-0.0,M,,M,,0000*7E

$GPGGA,142418.000,1024.13774,N,07530.36272,W,1,03,4.1,0.0,M,,M,,0000*5E
$GPGGA,142419.000,1024.13947,N,07530.36316,W,1,03,4.1,0.0,M,,M,,0000*52
$GPGGA,142421.000,1024.14097,N,07530.36207,W,1,03,4.1,0.0,M,,M,,0000*5B

$GPGGA,142423.000,1024.14301,N,07530.36108,W,1,03,4.1,0.0,M,,M,,0000*59
$GPGGA,142424.000,1024.14598,N,07530.36037,W,1,03,4.1,0.0,M,,M,,0000*55
$GPGGA,142426.000,1024.14224,N,07530.36098,W,1,03,4.1,0.0,M,,M,,0000*52

$GPGGA,142428.000,1024.14194,N,07530.36162,W,1,03,4.1,0.0,M,,M,,0000*50
$GPGGA,142429.000,1024.14426,N,07530.36089,W,1,03,4.1,0.0,M,,M,,0000*59
$GPGGA,142431.000,1024.15072,N,07530.36043,W,1,03,4.1,0.0,M,,M,,0000*52

$GPGGA,142433.000,1024.15252,N,07530.36082,W,1,03,4.1,0.0,M,,M,,0000*5D
$GPGGA,142434.000,1024.14643,N,07530.36126,W,1,03,4.1,0.0,M,,M,,0000*50
$GPGGA,142436.000,1024.14610,N,07530.36107,W,1,03,4.1,0.0,M,,M,,0000*57

$GPGGA,142438.000,1024.14751,N,07530.36046,W,1,03,4.1,0.0,M,,M,,0000*59
$GPGGA,142439.000,1024.14651,N,07530.36064,W,1,03,4.1,0.0,M,,M,,0000*59
$GPGGA,142441.000,1024.14740,N,07530.36107,W,1,03,4.1,0.0,M,,M,,0000*53

$GPGGA,142443.000,1024.14804,N,07530.36107,W,1,03,4.1,0.0,M,,M,,0000*5E
$GPGGA,142444.000,1024.15065,N,07530.36049,W,1,03,4.1,0.0,M,,M,,0000*5C
$GPGGA,142446.000,1024.14980,N,07530.36017,W,1,03,4.1,0.0,M,,M,,0000*56

$GPGGA,142448.000,1024.14726,N,07530.36123,W,1,03,4.1,0.0,M,,M,,0000*5C
$GPGGA,142449.000,1024.14934,N,07530.36062,W,1,03,4.1,0.0,M,,M,,0000*54
$GPGGA,142451.000,1024.15208,N,07530.35997,W,1,03,4.1,0.0,M,,M,,0000*58

$GPGGA,142453.000,1024.15403,N,07530.36072,W,1,03,4.1,0.0,M,,M,,0000*56
$GPGGA,142454.000,1024.14867,N,07530.36317,W,1,03,4.1,0.0,M,,M,,0000*5E
$GPGGA,142456.000,1024.15541,N,07530.36083,W,1,03,4.1,0.0,M,,M,,0000*5A

$GPGGA,142458.000,1024.14699,N,07530.36276,W,1,03,4.1,0.0,M,,M,,0000*5B
$GPGGA,142459.000,1024.15448,N,07530.36130,W,1,03,4.1,0.0,M,,M,,0000*54
$GPGGA,142501.000,1024.15063,N,07530.36230,W,1,03,4.1,0.0,M,,M,,0000*56

$GPGGA,142503.000,1024.14498,N,07530.35987,W,1,03,4.1,0.0,M,,M,,0000*51
$GPGGA,142504.000,1024.14137,N,07530.36024,W,1,03,4.1,0.0,M,,M,,0000*55
$GPGGA,142506.000,1024.14864,N,07530.35881,W,1,03,4.1,0.0,M,,M,,0000*5C

$GPGGA,142508.000,1024.14669,N,07530.35744,W,1,03,4.1,0.0,M,,M,,0000*57
$GPGGA,142509.000,1024.14926,N,07530.35726,W,1,03,4.1,0.0,M,,M,,0000*56
$GPGGA,142511.000,1024.15074,N,07530.35828,W,1,03,4.1,0.0,M,,M,,0000*51

$GPGGA,142513.000,1024.15345,N,07530.35670,W,1,03,4.1,0.0,M,,M,,0000*51
$GPGGA,142514.000,1024.15304,N,07530.35632,W,1,03,4.1,0.0,M,,M,,0000*55
$GPGGA,142516.000,1024.15049,N,07530.35468,W,1,03,4.1,0.0,M,,M,,0000*50

$GPGGA,142518.000,1024.15439,N,07530.35531,W,1,03,4.1,0.0,M,,M,,0000*50
$GPGGA,142519.000,1024.15628,N,07530.35503,W,1,03,4.1,0.0,M,,M,,0000*52
$GPGGA,142521.000,1024.15666,N,07530.35382,W,1,03,4.1,0.0,M,,M,,0000*5C

$GPGGA,142523.000,1024.16111,N,07530.35122,W,1,03,4.1,0.0,M,,M,,0000*52
$GPGGA,142524.000,1024.15818,N,07530.34950,W,1,03,4.1,0.0,M,,M,,0000*5A
$GPGGA,142526.000,1024.16081,N,07530.35025,W,1,03,4.1,0.0,M,,M,,0000*59

$GPGGA,142528.000,1024.15856,N,07530.34946,W,1,03,4.1,0.0,M,,M,,0000*5B
$GPGGA,142529.000,1024.15987,N,07530.34880,W,1,03,4.1,0.0,M,,M,,0000*5C
$GPGGA,142531.000,1024.15924,N,07530.35043,W,1,03,4.1,0.0,M,,M,,0000*5A

$GPGGA,142533.000,1024.15937,N,07530.35038,W,1,03,4.1,0.0,M,,M,,0000*56
$GPGGA,142534.000,1024.16406,N,07530.35167,W,1,03,4.1,0.0,M,,M,,0000*56

$GPGGA,142536.000,1024.16743,N,07530.34924,W,1,03,4.1,0.0,M,,M,,0000*58
$GPGGA,142537.000,,,,,0,00,,,M,,M,,0000*7E
$GPGGA,142539.000,,,,,0,00,,,M,,M,,0000*70

$GPGGA,142541.000,,,,,0,00,,,M,,M,,0000*7F
$GPGGA,142542.000,,,,,0,00,,,M,,M,,0000*7C
$GPGGA,142544.000,,,,,0,00,,,M,,M,,0000*7A

$GPGGA,142546.000,,,,,0,00,,,M,,M,,0000*78
$GPGGA,142547.000,,,,,0,00,,,M,,M,,0000*79
$GPGGA,142549.000,,,,,0,00,,,M,,M,,0000*77

$GPGGA,142551.000,,,,,0,00,,,M,,M,,0000*7E
$GPGGA,142552.000,1024.17025,N,07530.34672,W,1,03,4.1,0.0,M,,M,,0000*50